[
  {
    "name": "Second Harvest Northern Lakes Food Bank",
    "address": "Duluth, MN - 55811",
    "phone": "(218) 727-5653",
    "website": "https://secondharvestnorthland.org",
    "hours": "Tuesday 10:00am - 1:30pm",
    "type": "Food Pantry",
    "image": "https://source.unsplash.com/1600x900/?food,pantry",
    "rating": 110
  },
  {
    "name": "CHUM Food Shelf",
    "address": "Duluth, MN - 55802",
    "phone": "(218) 727-2391",
    "website": "https://www.chumduluth.org",
    "hours": "Wednesday & Friday 10 a.m. - 12:00 p.m.",
    "type": "Food Pantry",
    "image": "https://source.unsplash.com/1600x900/?food,pantry",
    "rating": 125
  },
  {
    "name": "Salvation Army Food Shelf Duluth",
    "address": "Duluth, MN - 55806",
    "phone": "(218) 722-7934",
    "website": "https://centralusa.salvationarmy.org/northern/Duluth/",
    "hours": "Mondays or Thursdays from 1:30 to 4:30 pm",
    "type": "Food Pantry",
    "image": "https://source.unsplash.com/1600x900/?salvation,army",
    "rating": 130
  },
  {
    "name": "Union Gospel Mission Duluth Meals and Food Shelf",
    "address": "Duluth, MN - 55802",
    "phone": "(218) 722-1196",
    "website": "https://duluth-ugm.org",
    "hours": "Lunch: Mon–Fri 12–1pm, Dinner: Mon–Thu 4:30–5:30pm",
    "type": "Meal Program",
    "image": "https://source.unsplash.com/1600x900/?gospel,mission",
    "rating": 112
  },
  {
    "name": "Chum Emergency Food Shelf West",
    "address": "Duluth, MN - 55807",
    "phone": "(218) 720-6521",
    "website": "https://www.chumduluth.org",
    "hours": "Tuesday and Thursday 11:00am - 2:00pm",
    "type": "Food Pantry",
    "image": "https://source.unsplash.com/1600x900/?food,shelf",
    "rating": 107
  },
  {
    "name": "Fruit of the Vine Food Shelf--Duluth",
    "address": "Duluth, MN - 55803",
    "phone": "218-393-9983",
    "website": "https://duluthvineyard.org/ministries/fruit-of-the-vine/",
    "hours": "Saturday 9:00am - 11:30am",
    "type": "Food Pantry",
    "image": "https://source.unsplash.com/1600x900/?fruit,pantry",
    "rating": 115
  },
  {
    "name": "Fruit of the Vine Pantry at the Vineyard Church",
    "address": "Duluth, MN - 55811",
    "phone": "(218) 525-3462",
    "website": "https://duluthvineyard.org/ministries/fruit-of-the-vine/",
    "hours": "Saturdays 9:30–11:30am, Tuesdays 6–8pm, Produce: 4th Friday 9:30–10:30am",
    "type": "Food Pantry",
    "image": "https://source.unsplash.com/1600x900/?pantry,church",
    "rating": 120
  }
]
